{
  "type": "FeatureCollection",
  "features": [
    {
      "type": "Feature",
      "geometry": {
        "type": "Point",
        "coordinates": [19.149699097352958, 41.95262753306175]
      },
      "properties": {
        "title": "Svetionik Mendra",
        "description": "маяк"
      }
    },
    {
      "type": "Feature",
      "geometry": {
        "type": "Point",
        "coordinates": [18.684660269783908, 42.43918827354297]
      },
      "properties": {
        "title": "Svetionik Ponta",
        "description": "маяк"
      }
    },
    {
      "type": "Feature",
      "geometry": {
        "type": "Point",
        "coordinates": [18.69019185676949, 42.47742212302048]
      },
      "properties": {
        "title": "Svetionik Verige",
        "description": "маяк",
        "notVerified": true
      }
    },
    {
      "type": "Feature",
      "geometry": {
        "type": "Point",
        "coordinates": [18.66450812754341, 42.384264418634125]
      },
      "properties": {
        "title": "Svetionik Luštica Bay",
        "description": "маяк",
        "notVerified": true
      }
    },
    {
      "type": "Feature",
      "geometry": {
        "type": "Point",
        "coordinates": [18.754079287825146, 42.44905231484165]
      },
      "properties": {
        "title": "Svetionik Prčanj",
        "description": "маяк",
        "notVerified": true
      }
    }
  ]
}
