{
  "type": "FeatureCollection",
  "features": [
    {
      "type": "Feature",
      "geometry": {
        "type": "Point",
        "coordinates": [19.149699, 41.952628]
      },
      "properties": {
        "name": "Svetionik Mendra",
        "description": "маяк"
      }
    },
    {
      "type": "Feature",
      "geometry": {
        "type": "Point",
        "coordinates": [18.68466, 42.439188]
      },
      "properties": {
        "name": "Svetionik Ponta",
        "description": "маяк"
      }
    },
    {
      "type": "Feature",
      "geometry": {
        "type": "Point",
        "coordinates": [18.690192, 42.477422]
      },
      "properties": {
        "name": "Svetionik Verige",
        "description": "маяк"
      }
    },
    {
      "type": "Feature",
      "geometry": {
        "type": "Point",
        "coordinates": [18.664508, 42.384264]
      },
      "properties": {
        "name": "Svetionik Luštica Bay",
        "description": "маяк",
        "notVerified": true
      }
    },
    {
      "type": "Feature",
      "geometry": {
        "type": "Point",
        "coordinates": [18.754079, 42.449052]
      },
      "properties": {
        "name": "Svetionik Prčanj",
        "description": "маяк"
      }
    },
    {
      "type": "Feature",
      "geometry": {
        "type": "Point",
        "coordinates": [18.695157, 42.430233]
      },
      "properties": {
        "name": "Svetionik Pine",
        "description": "маяк"
      }
    },
    {
      "type": "Feature",
      "geometry": {
        "type": "Point",
        "coordinates": [18.688251, 42.487247]
      },
      "properties": {
        "name": "Svetionik Gospa od Škrpjela",
        "description": "маяк"
      }
    },
    {
      "type": "Feature",
      "geometry": {
        "type": "Point",
        "coordinates": [19.201409, 41.922381]
      },
      "properties": {
        "name": "Svetionik Ulcinj",
        "description": "маяк"
      }
    },
    {
      "type": "Feature",
      "geometry": {
        "type": "Point",
        "coordinates": [18.748925, 42.453683]
      },
      "properties": {
        "name": "Svetionik Prčanj",
        "description": "маяк"
      }
    },
    {
      "type": "Feature",
      "geometry": {
        "type": "Point",
        "coordinates": [18.704267, 42.356054]
      },
      "properties": {
        "name": "Svetionik Bigova",
        "description": "маяк"
      }
    }
  ]
}
